{
  "museums": [
    {
      "id": 1,
      "name": "中国航空博物馆",
      "province": "北京市",
      "city": "北京市",
      "district": "昌平区",
      "lat": 40.183167,
      "lng": 116.35675,
      "description": "中国第一座对外开放的大型航空博物馆，亚洲最大的航空珍品荟萃地。馆藏270余架飞机、99架国家文物飞机、近万件航空文物。",
      "founded": 1986,
      "address": "北京市昌平区小汤山镇"
    },
    {
      "id": 2,
      "name": "中国航空工业历史博物馆",
      "province": "北京市",
      "city": "北京市",
      "district": "朝阳区",
      "lat": 40.46389,
      "lng": 116.9,
      "description": "展示中国航空工业发展历史的专业博物馆，收藏了多个时代的航空工业文物和飞行器。",
      "founded": 2000,
      "address": "北京市朝阳区"
    },
    {
      "id": 3,
      "name": "民航博物馆",
      "province": "北京市",
      "city": "北京市",
      "district": "朝阳区",
      "lat": 39.981903,
      "lng": 116.35064,
      "description": "中国民用航空相关的专业博物馆，展示民航发展历程和航空器械。",
      "founded": 1985,
      "address": "北京市朝阳区"
    },
    {
      "id": 4,
      "name": "南京航空航天博物馆",
      "province": "江苏省",
      "city": "南京市",
      "district": "秦淮区",
      "lat": 32.0603,
      "lng": 118.7969,
      "description": "位于南京航空航天大学明故宫校区，1992年对外开放。馆内分为飞机整机、其他航天器整机及部件三大展区，陈列歼五、歼八等多种飞行器。",
      "founded": 1992,
      "address": "南京市秦淮区"
    },
    {
      "id": 5,
      "name": "鲁山航空展览馆",
      "province": "河南省",
      "city": "平顶山市",
      "district": "鲁山县",
      "lat": 33.8,
      "lng": 113.5,
      "description": "亚洲第一、世界第二的航空博物馆。由军用机场改造而成，停机坪上有大量空军退役飞机。始建于上世纪六七十年代。",
      "founded": 1970,
      "address": "河南省平顶山市鲁山县让河乡"
    },
    {
      "id": 6,
      "name": "上海航宇科普中心",
      "province": "上海市",
      "city": "上海市",
      "district": "浦东新区",
      "lat": 31.2304,
      "lng": 121.5,
      "description": "上海地区的航空航天科普教育中心，展示航空航天知识和相关器械。",
      "founded": 2000,
      "address": "上海市浦东新区"
    },
    {
      "id": 7,
      "name": "广州民航职业技术学院博物馆",
      "province": "广东省",
      "city": "广州市",
      "district": "花都区",
      "lat": 23.4,
      "lng": 113.2,
      "description": "广州民航职业技术学院内的航空博物馆，展示民航教育和航空器械。",
      "founded": 2005,
      "address": "广州市花都区"
    }
  ]
}
