{
  "provinces": [
    {
      "name": "北京市",
      "code": "BJ",
      "lat": 39.9042,
      "lng": 116.4074,
      "bounds": [[39.4, 115.7], [40.6, 117.6]]
    },
    {
      "name": "上海市",
      "code": "SH",
      "lat": 31.2304,
      "lng": 121.4737,
      "bounds": [[30.7, 120.8], [31.9, 122.2]]
    },
    {
      "name": "江苏省",
      "code": "JS",
      "lat": 32.9697,
      "lng": 118.7969,
      "bounds": [[30.8, 118.4], [35.0, 121.9]]
    },
    {
      "name": "浙江省",
      "code": "ZJ",
      "lat": 30.2741,
      "lng": 120.1551,
      "bounds": [[27.2, 118.1], [34.7, 123.0]]
    },
    {
      "name": "河南省",
      "code": "HA",
      "lat": 34.3416,
      "lng": 113.6254,
      "bounds": [[32.1, 110.2], [36.4, 116.7]]
    },
    {
      "name": "山东省",
      "code": "SD",
      "lat": 36.3427,
      "lng": 117.1205,
      "bounds": [[34.4, 114.5], [37.9, 122.4]]
    },
    {
      "name": "广东省",
      "code": "GD",
      "lat": 23.1291,
      "lng": 113.2644,
      "bounds": [[20.1, 109.6], [25.5, 116.1]]
    },
    {
      "name": "福建省",
      "code": "FJ",
      "lat": 26.0745,
      "lng": 119.2965,
      "bounds": [[23.5, 116.0], [28.3, 120.8]]
    },
    {
      "name": "四川省",
      "code": "SC",
      "lat": 30.5728,
      "lng": 104.0668,
      "bounds": [[25.7, 97.2], [34.8, 108.8]]
    },
    {
      "name": "湖北省",
      "code": "HB",
      "lat": 30.5928,
      "lng": 114.3055,
      "bounds": [[28.4, 108.0], [33.7, 116.5]]
    },
    {
      "name": "湖南省",
      "code": "HN",
      "lat": 27.6104,
      "lng": 111.7088,
      "bounds": [[24.7, 108.8], [30.1, 114.2]]
    },
    {
      "name": "陕西省",
      "code": "SX",
      "lat": 34.3416,
      "lng": 108.9398,
      "bounds": [[31.4, 103.5], [37.6, 112.0]]
    },
    {
      "name": "山西省",
      "code": "SXI",
      "lat": 37.8739,
      "lng": 112.5489,
      "bounds": [[34.2, 110.2], [40.4, 114.3]]
    },
    {
      "name": "辽宁省",
      "code": "LN",
      "lat": 41.8045,
      "lng": 123.4328,
      "bounds": [[38.7, 118.4], [43.3, 125.1]]
    },
    {
      "name": "吉林省",
      "code": "JL",
      "lat": 43.8171,
      "lng": 125.3235,
      "bounds": [[41.2, 121.0], [46.2, 131.2]]
    },
    {
      "name": "黑龙江省",
      "code": "HLJ",
      "lat": 47.862,
      "lng": 127.7622,
      "bounds": [[43.2, 121.0], [53.6, 135.1]]
    },
    {
      "name": "安徽省",
      "code": "AH",
      "lat": 31.8257,
      "lng": 117.2272,
      "bounds": [[29.4, 114.5], [34.6, 119.7]]
    },
    {
      "name": "江西省",
      "code": "JX",
      "lat": 28.6829,
      "lng": 115.8579,
      "bounds": [[24.4, 113.3], [30.5, 118.6]]
    },
    {
      "name": "云南省",
      "code": "YN",
      "lat": 24.8801,
      "lng": 102.5331,
      "bounds": [[21.1, 97.4], [29.2, 106.2]]
    },
    {
      "name": "贵州省",
      "code": "GZ",
      "lat": 26.5783,
      "lng": 106.7135,
      "bounds": [[24.1, 103.7], [29.1, 109.8]]
    },
    {
      "name": "广西壮族自治区",
      "code": "GX",
      "lat": 22.8170,
      "lng": 108.3665,
      "bounds": [[20.9, 104.3], [26.4, 112.0]]
    },
    {
      "name": "内蒙古自治区",
      "code": "NMG",
      "lat": 47.5,
      "lng": 114.0,
      "bounds": [[37.2, 97.1], [53.4, 135.1]]
    },
    {
      "name": "宁夏回族自治区",
      "code": "NX",
      "lat": 38.4680,
      "lng": 106.2586,
      "bounds": [[36.0, 104.2], [39.5, 107.4]]
    },
    {
      "name": "新疆维吾尔自治区",
      "code": "XJ",
      "lat": 43.7929,
      "lng": 87.6278,
      "bounds": [[34.4, 73.5], [49.2, 96.0]]
    },
    {
      "name": "甘肃省",
      "code": "GS",
      "lat": 35.6171,
      "lng": 104.8202,
      "bounds": [[32.3, 92.1], [42.8, 108.5]]
    },
    {
      "name": "青海省",
      "code": "QH",
      "lat": 36.6171,
      "lng": 101.7782,
      "bounds": [[32.0, 89.3], [39.2, 104.1]]
    },
    {
      "name": "西藏自治区",
      "code": "XZ",
      "lat": 31.1695,
      "lng": 88.7460,
      "bounds": [[26.7, 78.3], [36.5, 99.1]]
    },
    {
      "name": "台湾省",
      "code": "TW",
      "lat": 23.6978,
      "lng": 120.9605,
      "bounds": [[21.9, 120.1], [25.3, 121.9]]
    },
    {
      "name": "香港特别行政区",
      "code": "HK",
      "lat": 22.3193,
      "lng": 114.1694,
      "bounds": [[22.1, 113.8], [22.6, 114.4]]
    },
    {
      "name": "澳门特别行政区",
      "code": "MO",
      "lat": 22.1987,
      "lng": 113.5439,
      "bounds": [[22.1, 113.5], [22.2, 113.6]]
    }
  ]
}
